[
  {
    "VIEW_NAME": "Wellcome Trust Sanger Institute",
    "LONGITUDE": 0.18558740000003127,
    "LATITUDE": 52.0797171,
    "top_level_web_domain": ""
  },
  {
    "VIEW_NAME": "Earlham Institute",
    "LONGITUDE": 1.2189869000000044,
    "LATITUDE": 52.6217407,
    "top_level_web_domain": "earlham.ac.uk"
  },
  {
    "VIEW_NAME": "TGAC",
    "LONGITUDE": 1.2189869000000044,
    "LATITUDE": 52.6217407,
    "top_level_web_domain": "tgac.ac.uk"
  },
  {
    "VIEW_NAME": "ELIXIR UK",
    "LONGITUDE": 1.2189869000000044,
    "LATITUDE": 52.6217407,
    "top_level_web_domain": "elixir-uk.org"
  },
  {
    "VIEW_NAME": "Arriva Group",
    "LONGITUDE": -1.4335148000000117,
    "LATITUDE": 54.86353090000001,
    "top_level_web_domain": ""
  },
  {
    "VIEW_NAME": "Delcam Ltd",
    "LONGITUDE": -1.8450110999999652,
    "LATITUDE": 52.46245099999999,
    "top_level_web_domain": ""
  },
  {
    "VIEW_NAME": "Met Office",
    "LONGITUDE": -3.472338000000036,
    "LATITUDE": 50.72742100000001,
    "top_level_web_domain": ""
  },
  {
    "VIEW_NAME": "Thales",
    "LONGITUDE": -2.185189799999989,
    "LATITUDE": 53.3911872,
    "top_level_web_domain": ""
  },
  {
    "VIEW_NAME": "The John Innes Centre",
    "LONGITUDE": 1.2213810000000649,
    "LATITUDE": 52.622271,
    "top_level_web_domain": ""
  },
  {
    "VIEW_NAME": "Climate Code Foundation",
    "LONGITUDE": -1.52900139999997,
    "LATITUDE": 53.3143842,
    "top_level_web_domain": ""
  },
  {
    "VIEW_NAME": "Kew Royal Botanic Gardens",
    "LONGITUDE": -0.2955729999999903,
    "LATITUDE": 51.4787438,
    "top_level_web_domain": ""
  },
  {
    "VIEW_NAME": "James Hutton Institute",
    "LONGITUDE": -2.158366000000001,
    "LATITUDE": 57.133131,
    "top_level_web_domain": ""
  },
  {
    "VIEW_NAME": "Daresbury Laboratory",
    "LONGITUDE": -2.6399344000000156,
    "LATITUDE": 53.34458119999999,
    "top_level_web_domain": ""
  },
  {
    "VIEW_NAME": "Owen Stephens Consulting",
    "LONGITUDE": -1.520078900000044,
    "LATITUDE": 52.28519050000001,
    "top_level_web_domain": ""
  },
  {
    "VIEW_NAME": "Public Health England",
    "LONGITUDE": -0.10871080000003985,
    "LATITUDE": 51.50153030000001,
    "top_level_web_domain": ""
  },
  {
    "VIEW_NAME": "IBM",
    "LONGITUDE": -0.1124157000000423,
    "LATITUDE": 51.5071586,
    "top_level_web_domain": ""
  },
  {
    "VIEW_NAME": "Media Molecule",
    "LONGITUDE": -0.5756398999999419,
    "LATITUDE": 51.2355975,
    "top_level_web_domain": ""
  },
  {
    "VIEW_NAME": "BBC",
    "LONGITUDE": -0.226846,
    "LATITUDE": 51.510025,
    "top_level_web_domain": ""
  },
  {
    "VIEW_NAME": "Culham Centre for Fusion Energy, UK Atomic Energy Authority",
    "LONGITUDE": -1.2305023999999776,
    "LATITUDE": 51.6588505,
    "top_level_web_domain": "ukaea.uk"
  },
  {
    "VIEW_NAME": "Digital Greenwich",
    "LONGITUDE": 0.006866500000000997,
    "LATITUDE": 51.5007361
  },
  {
    "VIEW_NAME": "National Oceanography Centre",
    "LONGITUDE": -1.3945247000000336,
    "LATITUDE": 50.8928051,
    "top_level_web_domain": ""
  },
  {
    "VIEW_NAME": "Natural History Museum",
    "LONGITUDE": -0.17636719999995876,
    "LATITUDE": 51.49671499999999,
    "top_level_web_domain": ""
  },
  {
    "VIEW_NAME": "Rutherford Appleton Laboratory",
    "LONGITUDE": -1.3159226000000217,
    "LATITUDE": 51.5726621,
    "top_level_web_domain": ""
  },
  {
    "VIEW_NAME": "SAP",
    "LONGITUDE": -0.44502220000003945,
    "LATITUDE": 51.44902499999999,
    "top_level_web_domain": ""
  },
  {
    "VIEW_NAME": "The Francis Crick Institute",
    "LONGITUDE": -0.12875610000003235,
    "LATITUDE": 51.5315844,
    "top_level_web_domain": ""
  },
  {
    "VIEW_NAME": "The Sir Alister Hardy Foundation for Ocean Science (SAHFOS)",
    "LONGITUDE": -4.138946,
    "LATITUDE": 50.364335,
    "top_level_web_domain": ""
  },
  {
    "VIEW_NAME": "STFC",
    "LONGITUDE": -2.636473,
    "LATITUDE": 53.348725,
    "top_level_web_domain": ""
  },
  {
    "VIEW_NAME": "Microsoft",
    "LONGITUDE": -2.238965,
    "LATITUDE": 53.479047,
    "top_level_web_domain": ""
  },
  {
    "VIEW_NAME": "British Library",
    "LONGITUDE": -0.136804,
    "LATITUDE": 51.584516
  },
  {
    "VIEW_NAME": "The Alan Turing Institute",
    "LONGITUDE": -0.127673,
    "LATITUDE": 51.530126,
    "top_level_web_domain": "turing.ac.uk"
  },
  {
    "VIEW_NAME": "The Sainsbury Laboratory",
    "LONGITUDE": 1.222558,
    "LATITUDE": 52.624620,
    "top_level_web_domain": ""
  },
  {
    "VIEW_NAME": "The Software Sustainability Institute",
    "LONGITUDE": -3.1871658613652833,
    "LATITUDE": 55.94596216941913,
    "top_level_web_domain": "software.ac.uk"
  }
]